{
   "type": "FeatureCollection",
   "features": [
  {
    "type": "Feature",
    "geometry": {
       "type": "Point",
       "coordinates":  [ 39.88703433,57.62262163 ]
    },
    "properties": {
    "Официальное название":"памятник Ярославу Мудрому (Ярославль)",
    "Народное название":"Мужик с тортом"
    }
  },
  {
    "type": "Feature",
    "geometry": {
       "type": "Point",
       "coordinates":  [ 37.50691866,55.73180232 ]
    },
    "properties": {
    "Официальное название":"Монумент Победы на Поклонной горе (Москва)",
    "Народное название":"Баба на игле"
    }
  },
  {
    "type": "Feature",
    "geometry": {
       "type": "Point",
       "coordinates":  [ 30.24338743,51.336919 ]
    },
    "properties": {
    "Официальное название":"монумент «Родина-мать» (Киев)",
    "Народное название":"Клёпаная мать"
    }
  },
  {
    "type": "Feature",
    "geometry": {
       "type": "Point",
       "coordinates":  [ 37.58251226,55.7083575 ]
    },
    "properties": {
    "Официальное название":"памятник Ю. А. Гагарину (Москва)",
    "Народное название":"Железный дровосек"
    }
  },
  {
    "type": "Feature",
    "geometry": {
       "type": "Point",
       "coordinates":  [ 30.59494992,60.58113366 ]
    },
    "properties": {
    "Официальное название":"Монумент героическим защитникам Ленинграда (Санкт-Петербург)",
    "Народное название":"Стамеска"
    }
  },
  {
    "type": "Feature",
    "geometry": {
       "type": "Point",
       "coordinates":  [ 34.46213727,62.46623347 ]
    },
    "properties": {
    "Официальное название":"скульптура «Тюбингенское панно» (Петрозаводск)",
    "Народное название":"Смерть парашютиста"
    }
  },
  {
    "type": "Feature",
    "geometry": {
       "type": "Point",
       "coordinates":  [ 32.35276235,55.81930098 ]
    },
    "properties": {
    "Официальное название":"памятник М. В. Исаковскому (Смоленск)",
    "Народное название":"Памятник обманутому мужу"
    }
  },
  {
    "type": "Feature",
    "geometry": {
       "type": "Point",
       "coordinates":  [ 30.33103893,53.90702748 ]
    },
    "properties": {
    "Официальное название":"статуя «Крылатая» — элемент мемориального комплекса «Борцам за советскую власть» (Могилев)",
    "Народное название":"Оксана, бегущая с «Лавсана»"
    }
  },
  {
    "type": "Feature",
    "geometry": {
       "type": "Point",
       "coordinates":  [ 37.45042014,56.55293669 ]
    },
    "properties": {
    "Официальное название":"памятник Ю. А. Гагарину (Москва)",
    "Народное название":"Чемоданы спёрли"
    }
  },
  {
    "type": "Feature",
    "geometry": {
       "type": "Point",
       "coordinates":  [ 40.98050223,56.99563863 ]
    },
    "properties": {
    "Официальное название":"памятник борцам революции 1905 г. (Иваново)",
    "Народное название":"Вставай, скоро одиннадцать"
    }
  },
  {
    "type": "Feature",
    "geometry": {
       "type": "Point",
       "coordinates":  [ 32.05060733,54.77936429 ]
    },
    "properties": {
    "Официальное название":"памятник А. Т. Твардовскому и Василию Тёркину (Смоленск)",
    "Народное название":"Третьим будешь?"
    }
  },
  {
    "type": "Feature",
    "geometry": {
       "type": "Point",
       "coordinates":  [ 37.83183502,55.91703228 ]
    },
    "properties": {
    "Официальное название":"Мемориал Славы в г. Королеве Московской области",
    "Народное название":"Трое вышли из леса"
    }
  },
  {
    "type": "Feature",
    "geometry": {
       "type": "Point",
       "coordinates":  [ 56.25074584,58.0100948 ]
    },
    "properties": {
    "Официальное название":"многофигурная композиция у памятника А. С. Пушкину (Пермь)",
    "Народное название":"Как жиды Россию губят"
    }
  },
  {
    "type": "Feature",
    "geometry": {
       "type": "Point",
       "coordinates":  [ 73.08267364,49.80917091 ]
    },
    "properties": {
    "Официальное название":"монумент «Шахтерская слава», Караганда",
    "Народное название":"Как русский казаха обманул"
    }
  },
  {
    "type": "Feature",
    "geometry": {
       "type": "Point",
       "coordinates":  [ 82.92232902,55.02726811 ]
    },
    "properties": {
    "Официальное название":"Сибирские просторы",
    "Народное название":"Хорьки крышуют"
    }
  },
  {
    "type": "Feature",
    "geometry": {
       "type": "Point",
       "coordinates":  [ 28.33278136,57.81935538 ]
    },
    "properties": {
    "Официальное название":"памятник В. И. Ленину (Псков)",
    "Народное название":"Вова, прячущий зарплату от Надежды Крупской"
    }
  },
  {
    "type": "Feature",
    "geometry": {
       "type": "Point",
       "coordinates":  [ 28.34600278,57.81425833 ]
    },
    "properties": {
    "Официальное название":"памятник А. С. Пушкину (Псков)",
    "Народное название":"Филипп отваливает от Аллы"
    }
  },
  {
    "type": "Feature",
    "geometry": {
       "type": "Point",
       "coordinates":  [ 47.9142741,56.6314517 ]
    },
    "properties": {
    "Официальное название":"Памятник композитору И. С. Ключникову-Палантаю",
    "Народное название":"Еще четыре, но больше не надо"
    }
  },
  {
    "type": "Feature",
    "geometry": {
       "type": "Point",
       "coordinates":  [ 47.92520087,56.64414934 ]
    },
    "properties": {
    "Официальное название":"статуе на въезде в Йошкар-Олу",
    "Народное название":"Бабу с караваем"
    }
  },
  {
    "type": "Feature",
    "geometry": {
       "type": "Point",
       "coordinates":  [ 28.37470465,57.74815244 ]
    },
    "properties": {
    "Официальное название":"героям-десантникам в пос. Череха",
    "Народное название":"Парашют"
    }
  },
  {
    "type": "Feature",
    "geometry": {
       "type": "Point",
       "coordinates":  [ 37.58249081,55.70833339 ]
    },
    "properties": {
    "Официальное название":"памятник Гагарину",
    "Народное название":"Ботиночки спёрли"
    }
  },
  {
    "type": "Feature",
    "geometry": {
       "type": "Point",
       "coordinates":  [ 37.74026849,47.96575093 ]
    },
    "properties": {
    "Официальное название":"Борцам за советскую власть (Донецк)",
    "Народное название":"Двое третьего ждут"
    }
  },
  {
    "type": "Feature",
    "geometry": {
       "type": "Point",
       "coordinates":  [ 28.34566124,57.81403351 ]
    },
    "properties": {
    "Официальное название":"памятник А. С. Пушкину (Псков)",
    "Народное название":"Пушкин с нянечкой тусуется"
    }
  },
  {
    "type": "Feature",
    "geometry": {
       "type": "Point",
       "coordinates":  [ 37.64710723,55.75926615 ]
    },
    "properties": {
    "Официальное название":"памятника Н. Г. Чернышевскому в Москве",
    "Народное название":"У мужика где-то часы сп**дили"
    }
  },
  {
    "type": "Feature",
    "geometry": {
       "type": "Point",
       "coordinates":  [ 50.11003698,53.2043582 ]
    },
    "properties": {
    "Официальное название":"монумент Славы (Самара)",
    "Народное название":"Мужик непьющий"
    }
  },
  {
    "type": "Feature",
    "geometry": {
       "type": "Point",
       "coordinates":  [ 36.04866844,52.94168116 ]
    },
    "properties": {
    "Официальное название":"памятник «Комсомольцам Орловщины, героически погибшим в борьбе за свободу и независимость нашей Родины в 1941–1945»",
    "Народное название":"«Три студента опаздывают на лекцию»/ Ребята со Щепного/ Синева\nс Щепного/ Вышли двое из пивбара/ Вышли двое со Щепного"
    }
  },
  {
    "type": "Feature",
    "geometry": {
       "type": "Point",
       "coordinates":  [ 30.34340456,59.93336064 ]
    },
    "properties": {
    "Официальное название":"‘Аничков мост (Санкт-Петербург)",
    "Народное название":"Мост восемнадцати яиц"
    }
  },
  {
    "type": "Feature",
    "geometry": {
       "type": "Point",
       "coordinates":  [ 37.79934856,55.80467588 ]
    },
    "properties": {
    "Официальное название":"скульптура «Раненый командир» (Москва)",
    "Народное название":"Двое третьего несут"
    }
  },
  {
    "type": "Feature",
    "geometry": {
       "type": "Point",
       "coordinates":  [ 40.98074033,56.99638317 ]
    },
    "properties": {
    "Официальное название":"памятник (Борцам революции 1905 г. ) на площади Революции (Москва)",
    "Народное название":"«Вставай, скоро 11»"
    }
  },
  {
    "type": "Feature",
    "geometry": {
       "type": "Point",
       "coordinates":  [ 40.99167242,57.00661974 ]
    },
    "properties": {
    "Официальное название":"«Памятник героям фронта и тыла».",
    "Народное название":"«Женщина, знай своё место»"
    }
  },
  {
    "type": "Feature",
    "geometry": {
       "type": "Point",
       "coordinates":  [ 39.69286167,47.21336 ]
    },
    "properties": {
    "Официальное название":"памятник Стачке 1905 г. (Ростов-на-Дону)",
    "Народное название":"“Двое пьяных ловят машину (до Таганрога)”/ “Сегодня в депо день получки”"
    }
  },
  {
    "type": "Feature",
    "geometry": {
       "type": "Point",
       "coordinates":  [ 56.02009446,54.76675215 ]
    },
    "properties": {
    "Официальное название":"скульптура, изображающая обнаженного мальчика с дудочкой-кураем (Уфа)",
    "Народное название":"Всё продай, купи курай"
    }
  },
  {
    "type": "Feature",
    "geometry": {
       "type": "Point",
       "coordinates":  [ 50.82427651,61.6667776 ]
    },
    "properties": {
    "Официальное название":"монумента в Сыктывкаре",
    "Народное название":"Бабы жарят крокодила"
    }
  },
  {
    "type": "Feature",
    "geometry": {
       "type": "Point",
       "coordinates":  [ 30.33026671,53.89403883 ]
    },
    "properties": {
    "Официальное название":"могилевской скульптуры (Могилёв)",
    "Народное название":"Бегущая/  Оксана, бегущая с «Лавсана»"
    }
  },
  {
    "type": "Feature",
    "geometry": {
       "type": "Point",
       "coordinates":  [ 36.23198943,50.00411646 ]
    },
    "properties": {
    "Официальное название":"монумента в честь провозглашения советской власти на Украине (до 2011)",
    "Народное название":"«Пятеро Воруют Холодильник»"
    }
  },
  {
    "type": "Feature",
    "geometry": {
       "type": "Point",
       "coordinates":  [ 30.3176156,59.9656203 ]
    },
    "properties": {
    "Официальное название":"студенты-медики (памятник находится недалеко от 1-го Медицинского института, ныне университета)",
    "Народное название":"Обезьянки с черепом"
    }
  },
  {
    "type": "Feature",
    "geometry": {
       "type": "Point",
       "coordinates":  [ 37.61001274,55.75209359 ]
    },
    "properties": {
    "Официальное название":"памятник Ф. М. Достоевскому, поставленный в 1997 г. у Российской государственной библиотеки в Москве",
    "Народное название":"Памятник русскому геморрою/На приеме\nу проктолога"
    }
  },
  {
    "type": "Feature",
    "geometry": {
       "type": "Point",
       "coordinates":  [ 36.7478862,51.0427312 ]
    },
    "properties": {
    "Официальное название":"мемориал Белгородской области",
    "Народное название":"“Итальянский пехотинец и немецкий панцергренадер взяли в плен советского танкиста”"
    }
  },
  {
    "type": "Feature",
    "geometry": {
       "type": "Point",
       "coordinates":  [ 43.95957272,56.32619947 ]
    },
    "properties": {
    "Официальное название":"памятник Ленину в Нижнем Новгороде",
    "Народное название":"Рабочие/мужики ловят гуся, Народ ловит гуся или Ловя гуся"
    }
  },
  {
    "type": "Feature",
    "geometry": {
       "type": "Point",
       "coordinates":  [ 39.02554164,54.96508745 ]
    },
    "properties": {
    "Официальное название":"Огурцу-кормильцу от блогадрных луховчан (Луховицы)",
    "Народное название":"Тектоновский пенис "
    }
  },
  {
    "type": "Feature",
    "geometry": {
       "type": "Point",
       "coordinates":  [ 28.33276919,57.81936576 ]
    },
    "properties": {
    "Официальное название":"памятник Ленину в Псковском педуниверситете",
    "Народное название":"Володя, сдающий курсовик или Ленин, достающий шпаргалку"
    }
  },
  {
    "type": "Feature",
    "geometry": {
       "type": "Point",
       "coordinates":  [ 73.08272728,49.80915706 ]
    },
    "properties": {
    "Официальное название":"Шахтерская слава (Караганда)",
    "Народное название":"Опять русский казаха обманул"
    }
  },
  {
    "type": "Feature",
    "geometry": {
       "type": "Point",
       "coordinates":  [ 37.61717147,54.19341429 ]
    },
    "properties": {
    "Официальное название":"памятник Л.Н. Толстому в Туле",
    "Народное название":"Лев Толстой идет на Туласпирт, Толстой, идущий за водкой"
    }
  },
  {
    "type": "Feature",
    "geometry": {
       "type": "Point",
       "coordinates":  [ 30.30838783,59.93221277 ]
    },
    "properties": {
    "Официальное название":"памятник Николаю I (Санкт-Петербург)",
    "Народное название":"Дурак умного догоняет, да Исаакий мешает"
    }
  },
  {
    "type": "Feature",
    "geometry": {
       "type": "Point",
       "coordinates":  [ 30.33864828,59.9392401 ]
    },
    "properties": {
    "Официальное название":"памятник Петру I",
    "Народное название":"Дурак умного догоняет, да Исаакий мешает"
    }
  },
  {
    "type": "Feature",
    "geometry": {
       "type": "Point",
       "coordinates":  [ 37.61956929,55.75847211 ]
    },
    "properties": {
    "Официальное название":"памятник Карлу Марксу (Москва)",
    "Народное название":"Пива хочешь?"
    }
  },
  {
    "type": "Feature",
    "geometry": {
       "type": "Point",
       "coordinates":  [ 37.58500901,55.77756552 ]
    },
    "properties": {
    "Официальное название":"монумент партизану с вытянутой на ст. метро Белорусская (Москва)",
    "Народное название":"Ласковый дедушка"
    }
  },
  {
    "type": "Feature",
    "geometry": {
       "type": "Point",
       "coordinates":  [ 37.63633535,55.7494352 ]
    },
    "properties": {
    "Официальное название":"памятник \"Милосердие\" на воротах Воспитательного дома (Москва)",
    "Народное название":"памятник Злой матери"
    }
  }
]
}